{"type": "FeatureCollection", "features": [{"type": "Feature", "properties": {"name": "Jababeka Industrial Estate", "city": "Cikarang", "province": "West Java", "notes": "approx centroid / source lists", "estate_city": "Cikarang", "estate_province": "West Java"}, "geometry": {"type": "Point", "coordinates": [107.128771, -6.288713]}}, {"type": "Feature", "properties": {"name": "MM2100 Industrial Town", "city": "Cikarang", "province": "West Java", "notes": "approx coord from public listings", "estate_city": "Cikarang", "estate_province": "West Java"}, "geometry": {"type": "Point", "coordinates": [107.102439, -6.298972]}}, {"type": "Feature", "properties": {"name": "Lippo Cikarang", "city": "Cikarang", "province": "West Java", "notes": "approx coord", "estate_city": "Cikarang", "estate_province": "West Java"}, "geometry": {"type": "Point", "coordinates": [107.124805, -6.326925]}}, {"type": "Feature", "properties": {"name": "Karawang International Industrial City (KIIC)", "city": "Karawang", "province": "West Java", "notes": "coordinate from project doc", "estate_city": "Karawang", "estate_province": "West Java"}, "geometry": {"type": "Point", "coordinates": [107.294361, -6.356333]}}, {"type": "Feature", "properties": {"name": "Greenland International Industrial Center (GIIC) - Deltamas", "city": "Cikarang (Deltamas)", "province": "West Java", "notes": "approx centroid for Deltamas area", "estate_city": "Cikarang", "estate_province": "West Java"}, "geometry": {"type": "Point", "coordinates": [107.257, -6.3435]}}, {"type": "Feature", "properties": {"name": "Batamindo Industrial Park", "city": "Batam", "province": "Riau Islands", "notes": "map listings", "estate_city": "Batam", "estate_province": "Riau Islands"}, "geometry": {"type": "Point", "coordinates": [104.03196, 1.05962]}}, {"type": "Feature", "properties": {"name": "Panbil Industrial Estate", "city": "Batam", "province": "Riau Islands", "notes": "approx Batam area", "estate_city": "Batam", "estate_province": "Riau Islands"}, "geometry": {"type": "Point", "coordinates": [104.044, 1.064]}}, {"type": "Feature", "properties": {"name": "Bintan Inti Industrial Estate", "city": "Bintan", "province": "Riau Islands", "notes": "local gov dataset coordinate", "estate_city": "Bintan", "estate_province": "Riau Islands"}, "geometry": {"type": "Point", "coordinates": [104.465294, 1.064935]}}, {"type": "Feature", "properties": {"name": "Jakarta Industrial Estate Pulogadung (JIEP)", "city": "Jakarta Timur", "province": "DKI Jakarta", "notes": "project docs / listings", "estate_city": "Jakarta Timur", "estate_province": "DKI Jakarta"}, "geometry": {"type": "Point", "coordinates": [106.894546, -6.189464]}}, {"type": "Feature", "properties": {"name": "Kawasan Berikat Nusantara (KBN Marunda)", "city": "Jakarta Utara", "province": "DKI Jakarta", "notes": "address in Marunda; approx coord", "estate_city": "Jakarta Utara", "estate_province": "DKI Jakarta"}, "geometry": {"type": "Point", "coordinates": [106.946, -6.128]}}, {"type": "Feature", "properties": {"name": "Indonesia Morowali Industrial Park (IMIP)", "city": "Morowali", "province": "Central Sulawesi", "notes": "IMIP / mapcarta coords", "estate_city": "Bahodopi", "estate_province": "Central Sulawesi"}, "geometry": {"type": "Point", "coordinates": [122.15711, -2.82473]}}, {"type": "Feature", "properties": {"name": "Kendal Industrial Park (KIP)", "city": "Kendal", "province": "Central Java", "notes": "district centroid / developer info", "estate_city": "Kendal", "estate_province": "Central Java"}, "geometry": {"type": "Point", "coordinates": [110.42, -6.91]}}, {"type": "Feature", "properties": {"name": "Kawasan Industri Tuban", "city": "Tuban", "province": "East Java", "notes": "Tuban industrial area centroid", "estate_city": "Tuban", "estate_province": "East Java"}, "geometry": {"type": "Point", "coordinates": [112.057, -6.889]}}, {"type": "Feature", "properties": {"name": "Kawasan Industri JIIPE / Gresik cluster", "city": "Gresik", "province": "East Java", "notes": "JIIPE / Gresik industrial cluster (approx)", "estate_city": "Gresik", "estate_province": "East Java"}, "geometry": {"type": "Point", "coordinates": [112.662, -7.164]}}, {"type": "Feature", "properties": {"name": "Cilegon / Krakatau Industrial Estate", "city": "Cilegon", "province": "Banten", "notes": "Cilegon industrial region centroid", "estate_city": "Cilegon", "estate_province": "Banten"}, "geometry": {"type": "Point", "coordinates": [106.046, -6.0027]}}, {"type": "Feature", "properties": {"name": "Puri Industrial Park (Batam cluster)", "city": "Batam", "province": "Riau Islands", "notes": "smaller Batam estate (approx)", "estate_city": "Batam", "estate_province": "Riau Islands"}, "geometry": {"type": "Point", "coordinates": [104.05, 1.06]}}, {"type": "Feature", "properties": {"name": "Delta Mas (industrial cluster)", "city": "Cikarang", "province": "West Java", "notes": "industrial cluster centroid", "estate_city": "Cikarang", "estate_province": "West Java"}, "geometry": {"type": "Point", "coordinates": [107.2915, -6.3385]}}, {"type": "Feature", "properties": {"name": "West Point / other Bekasi cluster", "city": "Bekasi", "province": "West Java", "notes": "cluster centroid", "estate_city": "Bekasi", "estate_province": "West Java"}, "geometry": {"type": "Point", "coordinates": [107.0, -6.3]}}, {"type": "Feature", "properties": {"name": "Union Industrial Park (Batam)", "city": "Batam", "province": "Riau Islands", "notes": "Batam small park approx", "estate_city": "Batam", "estate_province": "Riau Islands"}, "geometry": {"type": "Point", "coordinates": [104.045, 1.062]}}, {"type": "Feature", "properties": {"name": "Pan-Eastern / miscellaneous industrial cluster", "city": "Various", "province": "Various", "notes": "placeholder for other known estates (approx)", "estate_city": "Bekasi", "estate_province": "West Java"}, "geometry": {"type": "Point", "coordinates": [106.816666, -6.2]}}, {"type": "Feature", "properties": {"name": "Cikande Industrial Estate", "city": "Serang", "province": "Banten", "notes": "New entry added", "estate_city": "Serang", "estate_province": "Banten"}, "geometry": {"type": "Point", "coordinates": [106.3217, -6.1116]}}]}
